City,Lat,Lng,Max Temp,Humidity,Cloudiness,Wind Speed,Country,Date
Cidreira,-30.1811,-50.2056,65.57,84,2,23.06,BR,1666750038
Vila,42.0304,-8.1588,54.48,94,100,7.67,PT,1666750179
Šilalė,55.4906,22.1814,51.51,93,90,11.63,LT,1666750179
Sūsangerd,31.5608,48.1831,79.12,21,98,6.93,IR,1666750180
Dikson,73.5069,80.5464,23.94,76,100,0.27,RU,1666750069
Husavik,66.0449,-17.3389,36.52,95,100,6.6,IS,1666750180
Sompeta,18.9333,84.6,77.54,71,6,3.74,IN,1666750181
Qaanaaq,77.484,-69.3632,18.16,94,100,8.5,GL,1666750018
Namwala,-15.7504,26.4384,75.65,46,99,2.46,ZM,1666750181
Hilo,19.7297,-155.09,82.26,70,75,8.05,US,1666749858
Avarua,-21.2078,-159.775,77.05,57,100,9.22,CK,1666750015
New Norfolk,-42.7826,147.0587,58.91,81,100,4.0,AU,1666750062
Torbay,47.6666,-52.7314,55.49,88,6,5.99,CA,1666750009
Cape Town,-33.9258,18.4232,61.92,75,94,8.01,ZA,1666749821
Busselton,-33.65,115.3333,62.47,57,68,8.08,AU,1666750002
Kibaya,-5.3,36.5667,60.01,85,71,6.04,TZ,1666750182
Irtyshskiy,58.3333,68.1333,27.27,87,75,3.67,RU,1666750182
Port Elizabeth,-33.918,25.5701,60.1,80,100,7.02,ZA,1666750084
Albany,42.6001,-73.9662,66.61,90,38,4.0,US,1666749725
Carnarvon,-24.8667,113.6333,70.65,50,0,21.09,AU,1666750017
Bredasdorp,-34.5322,20.0403,61.05,72,100,9.46,ZA,1666750017
Ostrovnoy,68.0531,39.5131,31.39,83,100,18.84,RU,1666750093
Ushuaia,-54.8,-68.3,47.86,49,75,16.11,AR,1666749999
Port Alfred,-33.5906,26.891,60.19,92,100,4.0,ZA,1666750014
Bluff,-46.6,168.3333,51.8,90,100,10.18,NZ,1666750038
Touros,-5.1989,-35.4608,77.74,73,10,12.93,BR,1666750088
Punta Arenas,-53.15,-70.9167,48.31,61,100,9.22,CL,1666750000
Hofn,64.2539,-15.2082,42.6,81,100,15.86,IS,1666750101
Bengkulu,-3.8004,102.2655,75.87,92,100,4.68,ID,1666750030
Fortuna Foothills,32.6578,-114.4119,73.49,20,0,4.61,US,1666750184
Maxixe,-23.8597,35.3472,75.58,90,34,9.8,MZ,1666750184
Yvetot,49.6174,0.7581,60.15,72,100,10.2,FR,1666750185
Hermanus,-34.4187,19.2345,58.8,79,100,12.64,ZA,1666750015
Tuktoyaktuk,69.4541,-133.0374,9.91,95,91,9.57,CA,1666749998
Katsuura,35.1333,140.3,61.7,64,96,23.55,JP,1666750050
Yangi Marg`ilon,40.4272,71.7189,57.92,67,75,18.41,UZ,1666750186
Arraial do Cabo,-22.9661,-42.0278,70.97,78,1,8.32,BR,1666750020
Makakilo City,21.3469,-158.0858,84.56,62,40,17.27,US,1666750186
Bethel,41.3712,-73.414,66.29,90,100,0.0,US,1666750036
Butaritari,3.0707,172.7902,82.2,74,60,5.28,KI,1666750037
Hasaki,35.7333,140.8333,63.0,63,83,28.81,JP,1666750099
Yellowknife,62.456,-114.3525,21.56,85,96,10.0,CA,1666750006
Tasiilaq,65.6145,-37.6368,30.36,92,100,5.28,GL,1666750032
George Town,5.4112,100.3354,85.89,76,20,0.0,MY,1666750006
Puerto Ayora,-0.7393,-90.3518,65.55,98,47,5.01,EC,1666750032
Westport,41.1415,-73.3579,67.55,92,100,8.05,US,1666750168
Cherskiy,68.75,161.3,4.21,89,100,4.99,RU,1666750047
Norman Wells,65.282,-126.8329,15.84,92,75,3.44,CA,1666750051
Mataura,-46.1927,168.8643,51.48,97,100,4.41,NZ,1666750024
Esso,55.9333,158.7,29.77,83,95,5.48,RU,1666750188
Hobart,-42.8794,147.3294,59.27,98,75,12.66,AU,1666749927
Castro,-24.7911,-50.0119,58.96,94,47,9.66,BR,1666750012
Berdigestyakh,62.0989,126.6992,27.12,93,99,7.47,RU,1666750189
Timmins,48.4669,-81.3331,55.87,69,97,7.58,CA,1666750189
Puerto Madryn,-42.7692,-65.0385,58.82,52,62,18.34,AR,1666750189
Rikitea,-23.1203,-134.9692,72.88,79,47,13.62,PF,1666750009
Constitución,-35.3333,-72.4167,54.19,95,45,6.38,CL,1666750011
Salisbury,51.0693,-1.7957,62.02,88,100,14.97,GB,1666750190
Sabla,12.7525,4.7077,78.51,29,41,9.31,NG,1666750190
Nyurba,63.2842,118.3319,26.53,89,48,8.59,RU,1666750190
Keti Bandar,24.1447,67.4497,79.61,77,0,11.1,PK,1666750191
Atuona,-9.8,-139.0333,77.31,73,6,17.65,PF,1666750021
Nikolskoye,59.7035,30.7861,37.29,95,100,7.2,RU,1666750027
Bambous Virieux,-20.3428,57.7575,72.21,83,75,9.22,MU,1666750037
Mazagão,-0.115,-51.2894,82.45,85,100,5.75,BR,1666749895
Namatanai,-3.6667,152.4333,84.4,69,95,3.71,PG,1666750089
Black River,18.0264,-77.8487,78.44,81,7,4.05,JM,1666750192
Hamilton,39.1834,-84.5333,64.09,90,100,14.97,US,1666750149
Sitka,57.0531,-135.33,42.69,75,40,6.91,US,1666750030
Guerrero Negro,27.9769,-114.0611,68.9,54,0,14.16,MX,1666749779
Faanui,-16.4833,-151.75,79.63,76,95,22.44,PF,1666750059
Half Moon Bay,37.4636,-122.4286,61.45,73,0,24.16,US,1666750193
Hithadhoo,-0.6,73.0833,81.93,76,82,12.68,MV,1666750073
Pevek,69.7008,170.3133,0.99,91,38,4.94,RU,1666750103
Barrow,71.2906,-156.7887,23.02,80,100,21.85,US,1666750004
Forestville,38.8451,-76.875,60.98,95,100,6.91,US,1666749910
Esperance,-33.8667,121.9,62.46,67,28,10.76,AU,1666750054
Janaúba,-15.8025,-43.3089,79.5,48,80,8.86,BR,1666750194
Ayagoz,47.9714,80.4392,35.02,58,86,4.03,KZ,1666750194
Vila Velha,-20.3297,-40.2925,71.55,94,75,2.3,BR,1666750010
Laas,46.6166,10.7002,48.69,92,100,1.28,IT,1666750195
Bubaque,11.2833,-15.8333,83.37,76,9,5.48,GW,1666750195
Lavrentiya,65.5833,-171.0,27.45,77,59,13.24,RU,1666750085
Saint-Philippe,-21.3585,55.7679,67.59,78,25,11.56,RE,1666750076
Bilibino,68.0546,166.4372,-4.49,95,72,2.51,RU,1666750197
Tiksi,71.6872,128.8694,17.85,88,100,14.99,RU,1666750035
Mankera,31.3866,71.4407,72.79,25,0,4.88,PK,1666750197
Dharmavaram,14.4333,77.7167,72.43,61,0,1.3,IN,1666750198
Miraflores,19.2167,-98.8083,70.03,82,83,4.81,MX,1666750198
Lázaro Cárdenas,17.9583,-102.2,79.81,85,40,5.37,MX,1666750070
Vaini,-21.2,-175.2,73.56,73,75,5.75,TO,1666750007
Helong,42.5397,128.9972,56.75,43,100,4.29,CN,1666750198
Mt. Pleasant,32.7941,-79.8626,63.0,97,0,0.0,US,1666750199
Lebu,-37.6167,-73.65,54.07,97,100,9.26,CL,1666750110
Kaitangata,-46.2817,169.8464,50.34,90,100,6.8,NZ,1666750108
Tuatapere,-46.1333,167.6833,52.11,94,100,7.27,NZ,1666750125
Ribeira Grande,38.5167,-28.7,61.77,74,64,8.99,PT,1666750006
Atherton,53.5237,-2.4935,59.29,89,100,5.99,GB,1666750092
Saint-Pierre,-21.3393,55.4781,70.92,73,0,5.75,RE,1666750107
Storforshei,66.4043,14.5233,40.66,100,100,1.14,NO,1666750200
Aksu,41.1231,80.2644,50.72,31,100,2.42,CN,1666750200
Tautira,-17.7333,-149.15,78.53,81,91,23.29,PF,1666750045
Flinders,-34.5833,150.8552,81.37,52,5,7.0,AU,1666750057
Río Gallegos,-51.6226,-69.2181,46.02,75,99,23.64,AR,1666750201
Port Hedland,-20.3167,118.5667,91.45,12,0,20.71,AU,1666750141
Arlit,18.7369,7.3853,74.57,13,0,6.96,NE,1666750203
Sumbe,-11.2061,13.8437,75.38,88,89,6.85,AO,1666750205
Khatanga,71.9667,102.5,-4.09,99,96,3.87,RU,1666750002
Los Llanos de Aridane,28.6585,-17.9182,64.15,75,0,8.99,ES,1666750131
Monduli,-3.3,36.45,60.33,85,24,3.6,TZ,1666750205
Russell,32.3502,-85.1999,69.96,94,100,6.91,US,1666750206
Codrington,-38.2667,141.9667,60.1,92,100,11.07,AU,1666750078
Lompoc,34.6391,-120.4579,61.02,80,0,14.97,US,1666749997
Harper,4.375,-7.7169,76.84,90,98,7.43,LR,1666750206
Mahébourg,-20.4081,57.7,72.25,83,75,9.22,MU,1666750033
Provideniya,64.3833,-173.3,28.51,59,75,20.13,RU,1666750083
Leningradskiy,69.3833,178.4167,3.83,87,14,4.45,RU,1666750030
Balkhash,46.844,74.9804,38.01,93,40,6.71,KZ,1666750208
Nanortalik,60.1432,-45.2371,33.39,73,3,2.73,GL,1666750131
Shimoda,34.6667,138.95,64.11,51,0,13.49,JP,1666750209
Birao,10.2849,22.7882,70.14,40,95,4.88,CF,1666750088
Pocatello,42.8713,-112.4455,39.47,63,0,5.75,US,1666750210
Hong Kong,22.2855,114.1577,78.85,66,81,11.01,HK,1666750073
Genhe,50.7833,121.5167,33.55,41,18,7.63,CN,1666750211
Mahabalipuram,12.6264,80.1722,78.85,62,1,5.19,IN,1666750211
Dauphin,51.1494,-100.0502,24.01,91,99,6.67,CA,1666750212
Saldanha,-33.0117,17.9442,58.12,89,10,10.29,ZA,1666750163
Saint Paul Harbor,57.79,-152.4072,45.91,87,40,4.61,US,1666750045
Manokwari,-0.8667,134.0833,84.16,71,100,8.28,ID,1666750212
Maningrida,-12.0667,134.2667,92.41,50,16,9.42,AU,1666750213
Kapaa,22.0752,-159.319,82.72,78,40,12.66,US,1666750008
Mount Isa,-20.7333,139.5,87.57,45,75,18.41,AU,1666750052
Khuzhir,53.1939,107.3397,35.62,51,11,1.83,RU,1666750214
Anadyr,64.75,177.4833,9.1,92,40,8.95,RU,1666750010
Dingle,10.9995,122.6711,83.21,81,100,11.21,PH,1666750075
Ponta do Sol,32.6667,-17.1,73.0,91,84,7.02,PT,1666750018
Vallenar,-28.5708,-70.7581,57.47,64,0,0.96,CL,1666750081
Seoul,37.5683,126.9778,56.64,37,0,2.93,KR,1666750208
Lorengau,-2.0226,147.2712,86.79,60,96,5.48,PG,1666750088
Tekkali,18.6167,84.2333,76.08,72,4,3.51,IN,1666750216
Gemeente Veghel,51.6,5.5333,53.98,84,100,5.75,NL,1666750216
Sawtell,-30.3833,153.1,82.18,47,8,8.05,AU,1666750093
Poros,37.4994,23.4536,70.21,65,1,5.53,GR,1666750217
Abnūb,27.2696,31.1511,70.02,38,75,7.25,EG,1666750217
Cabra,37.4725,-4.4421,65.93,58,100,1.36,ES,1666750209
Bayonet Point,28.3267,-82.6834,74.95,86,0,5.97,US,1666749922
Jamestown,42.097,-79.2353,63.72,66,0,4.61,US,1666750040
Antofagasta,-23.65,-70.4,58.28,78,55,4.09,CL,1666750219
Saskylakh,71.9167,114.0833,-7.28,100,42,3.56,RU,1666750029
Hasilpur,29.7122,72.5553,73.49,25,0,3.94,PK,1666750219
Miyako,39.6367,141.9525,54.37,54,96,14.05,JP,1666750220
East London,-33.0153,27.9116,63.32,70,100,9.42,ZA,1666749927
Cabo San Lucas,22.8909,-109.9124,79.9,73,40,12.66,MX,1666750163
Zeya,53.75,127.2667,36.14,37,0,11.5,RU,1666750221
Marzuq,14.4,46.4667,63.66,55,6,0.96,YE,1666750036
Marawi,7.9986,124.2928,77.13,75,100,2.89,PH,1666750076
Morón,-34.6534,-58.6198,71.94,78,100,10.2,AR,1666750222
Bathsheba,13.2167,-59.5167,83.01,83,40,18.41,BB,1666750028
Cockburn Town,21.4612,-71.1419,80.89,70,100,5.61,TC,1666750021
Nantucket,41.2835,-70.0995,66.34,95,100,13.8,US,1666750223
Gold Coast,-28.0,153.4333,90.16,43,14,8.72,AU,1666750223
Santa Isabel Rio Negro,-0.4139,-65.0192,79.7,76,100,2.44,BR,1666750223
Grand Gaube,-20.0064,57.6608,72.37,71,16,5.01,MU,1666750224
Longyearbyen,78.2186,15.6401,12.04,79,20,8.05,SJ,1666750017
Mikhaylovka,50.06,43.2379,38.79,61,99,5.46,RU,1666750224
Nsanje,-16.92,35.262,75.47,63,6,3.58,MW,1666750225
Saint George,37.1041,-113.5841,60.94,34,0,3.44,US,1666749946
Port Hardy,50.6996,-127.4199,44.02,90,91,1.28,CA,1666750226
Zhigansk,66.7697,123.3711,5.72,95,26,7.05,RU,1666750040
Pak Thong Chai,14.7226,102.0251,82.15,82,45,8.34,TH,1666750226
Palmer,42.1584,-72.3287,65.91,85,100,1.01,US,1666750041
Meulaboh,4.1363,96.1285,79.25,83,100,4.03,ID,1666750227
Acworth,34.0659,-84.6769,68.56,91,100,12.66,US,1666750227
Ārya,33.6,73.0667,61.23,72,0,4.41,PK,1666750228
Ures,29.4333,-110.4,70.52,40,0,5.06,MX,1666750228
‘Āhuimanu,21.4447,-157.8378,85.75,69,75,17.27,US,1666750228
Severo-Kuril'sk,50.6789,156.125,41.63,62,1,8.93,RU,1666750034
Awjilah,29.1081,21.2869,64.98,77,0,7.09,LY,1666750229
Kandi,11.1342,2.9386,78.12,58,96,4.05,BJ,1666750229
Mangaratiba,-22.9597,-44.0406,68.5,89,88,4.83,BR,1666750230
Gravdal,68.1214,13.5031,40.95,69,63,2.93,NO,1666750230
Rome,43.2128,-75.4557,68.09,86,100,8.05,US,1666749992
Beloha,-25.1667,45.05,69.01,88,100,3.89,MG,1666750034
Cuamba,-14.8031,36.5372,73.49,43,45,4.74,MZ,1666750231
Itoman,26.1247,127.6694,80.62,47,20,17.27,JP,1666750231
Aklavik,68.2191,-135.0107,4.91,98,86,6.49,CA,1666750231
Maniitsoq,65.4167,-52.9,27.39,72,100,10.11,GL,1666750232
Andenes,69.3143,16.1194,33.93,86,100,4.61,NO,1666750232
Mar del Plata,-38.0023,-57.5575,61.95,83,0,13.0,AR,1666750053
Kokopo,-4.352,152.2633,85.96,64,79,8.03,PG,1666750232
Casablanca,33.5928,-7.6192,73.33,69,100,4.0,MA,1666750031
Alofi,-19.0595,-169.9187,76.89,61,75,11.5,NU,1666750233
Zhezkazgan,47.8043,67.7144,35.58,69,0,6.71,KZ,1666750233
Tubmanburg,6.8708,-10.8172,73.6,98,65,2.1,LR,1666750234
Arrondissement de Rochefort,45.9167,-1.0,62.65,92,48,5.97,FR,1666750234
São João de Pirabas,-0.7747,-47.1772,78.64,77,78,6.08,BR,1666750234
Prince Rupert,54.3161,-130.3201,44.22,86,78,4.97,CA,1666750041
Coquimbo,-29.9533,-71.3436,53.33,93,0,5.75,CL,1666750235
Avera,33.194,-82.5271,67.37,52,100,7.87,US,1666750024
Nome,64.5011,-165.4064,30.27,69,75,20.71,US,1666750016
Soyo,-6.1349,12.3689,76.6,92,58,6.53,AO,1666750235
Te Anau,-45.4167,167.7167,55.24,80,100,5.57,NZ,1666750236
Batemans Bay,-35.7167,150.1833,70.11,56,50,3.15,AU,1666750077
Ugoofaaru,5.6667,73.0,81.57,76,95,8.14,MV,1666750236
Bodden Town,19.2833,-81.25,82.4,78,20,8.05,KY,1666750236
Sotouboua,8.5667,0.9833,72.54,96,83,3.87,TG,1666750237
Ahipara,-35.1667,173.1667,65.46,56,64,8.72,NZ,1666750014
Kavieng,-2.5744,150.7967,83.97,73,100,5.14,PG,1666750013
Kahului,20.8947,-156.47,86.02,71,20,25.32,US,1666749896
Upernavik,72.7868,-56.1549,23.72,95,100,5.55,GL,1666749998
Balyqshy,47.0667,51.8667,26.6,93,0,8.95,KZ,1666750238
Fort Nelson,58.8053,-122.7002,22.41,89,100,2.35,CA,1666750238
Ginir,7.1333,40.7,55.42,88,2,4.16,ET,1666750238
Arni,12.6667,79.2833,74.32,65,37,2.51,IN,1666750239
Sabha,27.0377,14.4283,66.69,41,0,9.08,LY,1666750239
Ballina,-28.8667,153.5667,84.78,43,5,6.8,AU,1666750117
Cururupu,-1.8283,-44.8683,78.06,79,99,5.14,BR,1666750239
Chui,-33.6971,-53.4616,59.27,87,73,12.19,UY,1666750095
Doha,25.2867,51.5333,80.58,67,0,1.14,QA,1666750064
Pathein,16.7833,94.7333,80.44,84,100,3.74,MM,1666750240
Udachny,66.4167,112.4,23.45,85,79,7.9,RU,1666750240
Mount Gambier,-37.8333,140.7667,62.51,94,100,14.97,AU,1666750139
Souillac,-20.5167,57.5167,71.98,83,75,9.22,MU,1666750100
Mirny,62.5353,113.9611,28.24,86,100,8.99,RU,1666750241
Ambon City,-3.6954,128.1814,89.74,66,40,5.75,ID,1666750241
Mollendo,-17.0231,-72.0147,60.31,87,87,7.83,PE,1666750242
Saint-Augustin,51.226,-58.6502,51.17,87,100,8.43,CA,1666750134
Qui Nhon,13.7667,109.2333,80.38,84,93,5.41,VN,1666750048
Luk Pu,23.1742,112.2809,79.99,56,27,4.32,CN,1666750242
Eenhana,-17.4667,16.3333,72.41,61,100,7.14,NA,1666750242
Agadez,19.75,10.25,65.98,22,0,9.89,NE,1666750243
Shepsi,44.0361,39.1489,58.1,67,60,5.14,RU,1666750243
Tafresh,34.692,50.013,48.22,56,0,2.64,IR,1666750243
Hay River,60.8156,-115.7999,31.96,100,100,3.44,CA,1666750244
Oktyabr'skiy,54.4815,53.471,29.17,90,28,6.29,RU,1666750244
Arbagar,51.9438,116.2805,32.07,34,0,3.71,RU,1666750244
Thompson,55.7435,-97.8558,24.49,96,100,8.08,CA,1666750002
Pisco,-13.7,-76.2167,60.03,88,0,16.11,PE,1666750245
Clyde River,70.4692,-68.5914,-0.38,89,40,3.71,CA,1666750084
Weyburn,49.6668,-103.8511,30.34,85,18,4.61,CA,1666750109
Kenai,60.5544,-151.2583,31.14,98,100,16.11,US,1666750083
Kayerkan,69.3497,87.7602,6.96,99,92,3.91,RU,1666750246
Cooma,-36.2333,149.1333,64.13,63,61,14.5,AU,1666750143
Kloulklubed,7.0419,134.2556,84.0,78,100,20.15,PW,1666750246
Esparta,15.7437,-87.1766,77.14,89,74,4.9,HN,1666750247
Macamic,48.7502,-78.9996,57.22,66,100,12.19,CA,1666750247
Sistranda,63.7256,8.834,46.36,92,99,10.49,NO,1666750247
Xining,36.6167,101.7667,48.58,77,82,1.97,CN,1666750067
Korla,41.7597,86.1469,50.9,37,24,1.72,CN,1666749853
Kitale,1.0157,35.0062,55.11,76,63,1.3,KE,1666750248
Ashikaga,36.3333,139.45,61.63,40,6,1.74,JP,1666750248
Vågåmo,61.8751,9.0967,42.75,93,95,3.69,NO,1666750249
Kasama,-10.2129,31.1808,66.13,56,100,2.48,ZM,1666750249
Fortuna,40.5982,-124.1573,53.65,90,0,9.22,US,1666750250
Rio Grande,-32.035,-52.0986,63.0,88,1,17.69,BR,1666750143
Camacha,33.0833,-16.3333,67.42,94,20,12.66,PT,1666750121
Lüderitz,-26.6481,15.1594,61.81,63,76,11.39,NA,1666750007
Hornepayne,49.2138,-84.7705,40.64,76,100,7.72,CA,1666750251
Colorado,-22.8375,-51.9731,69.15,58,0,6.76,BR,1666749958
Yartsevo,55.0667,32.6964,41.9,88,100,6.06,RU,1666750251
Santander,43.4647,-3.8044,72.46,52,0,17.27,ES,1666749958
Kano,12.0001,8.5167,75.65,28,100,7.38,NG,1666750252
Rozsypne,48.1497,38.5762,48.36,96,100,8.66,UA,1666750252
Laguna,38.421,-121.4238,67.98,52,0,0.0,US,1666750061
Palmira,3.5394,-76.3036,72.88,78,75,11.5,CO,1666750252
Tema,5.667,-0.0166,79.21,81,100,4.83,GH,1666750253
Havre-St-Pierre,50.2334,-63.5986,50.36,100,100,4.61,CA,1666750253
Bāglung,28.2719,83.5898,62.33,55,0,3.33,NP,1666750253
Parral,26.9333,-105.6667,60.91,47,100,4.47,MX,1666750254
Murgab,37.4966,61.9714,56.61,61,47,2.95,TM,1666750254
Rawson,-43.3002,-65.1023,58.05,53,54,13.0,AR,1666750254
Olafsvik,64.8945,-23.7142,42.39,81,100,21.0,IS,1666750255
Sibu,2.3,111.8167,76.57,93,100,2.33,MY,1666750255
Berlevåg,70.8578,29.0864,33.8,80,100,7.02,NO,1666750133
Tazovsky,67.4667,78.7,15.93,91,76,11.86,RU,1666750256
Narsaq,60.9167,-46.05,26.82,71,22,6.98,GL,1666750078
Necochea,-38.5473,-58.7368,61.95,72,100,9.93,AR,1666750256
Caçu,-18.5567,-51.1308,76.96,36,10,3.36,BR,1666750257
Birjand,32.8663,59.2211,48.67,40,0,9.22,IR,1666750257
Riyadh,24.6877,46.7219,64.54,20,0,6.38,SA,1666750258
Marsh Harbour,26.5412,-77.0636,78.21,66,3,10.16,BS,1666750071
Chokurdakh,70.6333,147.9167,8.65,95,100,1.52,RU,1666750072
Kavaratti,10.5669,72.642,82.33,60,31,9.69,IN,1666750005
Uyemskiy,64.4743,40.8524,28.45,100,100,4.47,RU,1666750258
Prince Albert,53.2001,-105.7677,28.58,77,62,5.5,CA,1666750259
São Mateus,-18.7161,-39.8589,70.61,93,40,3.44,BR,1666750259
Ambilobe,-13.2,49.05,67.95,75,0,4.56,MG,1666750259
Ballarat,-37.5662,143.8496,59.58,86,100,1.01,AU,1666750196
Oistins,13.0667,-59.5333,82.49,83,40,18.41,BB,1666750260
Portland,45.5234,-122.6762,50.81,93,100,5.99,US,1666750118
Shache,38.4167,77.2406,54.72,26,96,2.33,CN,1666750260
San Patricio,28.017,-97.5169,72.84,33,2,6.22,US,1666750031
Agboville,5.928,-4.2132,73.29,99,91,1.05,CI,1666750261
Mareeba,-17.0,145.4333,97.45,42,0,2.95,AU,1666750261
Gao,16.6362,1.637,79.34,23,16,11.27,ML,1666750261
Saint-François,46.4154,3.9054,56.68,88,0,4.61,FR,1666750262
Huilong,31.8111,121.655,67.93,72,100,12.71,CN,1666750262
Majene,-3.5403,118.9707,84.85,70,100,2.46,ID,1666750262
Fukuechō,32.6881,128.8419,63.23,52,11,10.87,JP,1666750263
Inhambane,-23.865,35.3833,76.15,89,28,11.05,MZ,1666750263
Dalbandin,28.8947,64.4101,66.94,21,0,3.91,PK,1666750264
Khasan,42.4308,130.6434,50.83,63,57,2.95,RU,1666750264
Point Fortin,10.1833,-61.6833,77.86,81,51,12.44,TT,1666750265
Breyten,-26.3018,29.987,57.47,45,53,3.51,ZA,1666750265
Cabedelo,-6.9811,-34.8339,79.47,80,20,9.93,BR,1666750266
Pho Chai,16.3283,103.7703,86.09,70,12,14.74,TH,1666750266
Songjianghe,42.1859,127.479,49.28,49,100,8.7,CN,1666750267
El Doncello,1.6782,-75.2847,72.37,95,100,3.47,CO,1666750267
Klaksvík,62.2266,-6.589,47.32,92,79,8.93,FO,1666749975
Muscat,23.6139,58.5922,81.09,53,0,7.11,OM,1666750268
Ruteng,-8.6136,120.4721,72.23,74,100,0.76,ID,1666750268
Buala,-8.145,159.5921,84.15,74,41,5.17,SB,1666750268
Sittwe,20.15,92.9,76.73,85,21,6.8,MM,1666750269
Zhicheng,30.2956,111.5047,60.93,71,100,2.71,CN,1666750269
Denpasar,-8.65,115.2167,82.06,83,20,2.3,ID,1666750038
Ploemeur,47.7333,-3.4333,62.82,92,0,16.11,FR,1666750270
Adrar,20.5022,-10.0711,76.35,17,81,10.2,MR,1666750270
Bourail,-21.5667,165.4833,81.12,60,54,2.89,NC,1666750271
Ilulissat,69.2167,-51.1,26.62,93,100,0.0,GL,1666750057
Edd,13.9297,41.6925,84.67,52,0,13.02,ER,1666750271
Obo,5.3998,26.4869,67.48,96,99,2.77,CF,1666750272
Ohafia,5.6167,7.8333,71.17,98,100,2.59,NG,1666750272
Egvekinot,66.3167,-179.1667,9.1,79,15,5.19,RU,1666750127
Gisborne,-38.6533,178.0042,62.69,64,100,4.59,NZ,1666750273
Burnie,-41.0667,145.9167,67.95,63,99,2.51,AU,1666750273
Newcastleton,55.1796,-2.8127,57.04,93,100,13.49,GB,1666750274
Lima,-12.0432,-77.0282,60.91,83,75,12.66,PE,1666750233
Vardø,70.3705,31.1107,31.98,86,75,18.41,NO,1666750140
Progreso,21.2833,-89.6667,82.11,79,28,7.65,MX,1666750275
Ranfurly,-45.1333,170.1,63.1,53,100,12.08,NZ,1666750103
Bhaderwah,32.9784,75.7186,52.12,52,0,2.51,IN,1666750276
Sambava,-14.2667,50.1667,68.99,88,49,6.62,MG,1666750277
Crotone,39.0851,17.1178,74.19,51,13,7.99,IT,1666750278
Karratha,-20.7377,116.8463,89.26,17,0,18.59,AU,1666750123
Puerto Carreño,6.189,-67.4859,79.2,79,79,4.7,CO,1666750278
Raja,8.4596,25.678,69.22,60,100,1.16,SS,1666750278
La Ronge,55.1001,-105.2842,29.8,72,91,3.18,CA,1666750135
Ocampo,21.65,-101.5,62.17,47,8,6.69,MX,1666750279
Tolú,9.5239,-75.5814,78.84,88,100,5.01,CO,1666750280
Soc Trang,9.6033,105.98,83.23,77,98,6.29,VN,1666750280
Galle,6.0367,80.217,78.33,85,100,3.18,LK,1666750114
Biltine,14.5333,20.9167,72.39,18,2,7.99,TD,1666750280
Mosetse,-20.75,26.65,76.24,38,26,8.05,BW,1666750281
Cap Malheureux,-19.9842,57.6142,72.46,71,11,5.01,MU,1666750281
College,64.8569,-147.8028,23.2,80,75,8.05,US,1666750124
Bassano,50.7834,-112.4685,33.64,56,4,6.64,CA,1666750282
Eyl,7.9803,49.8164,77.68,80,25,2.86,SO,1666750282
Roebourne,-20.7833,117.1333,88.99,18,0,19.26,AU,1666750283
Liyang,29.7057,118.2862,61.75,66,100,2.8,CN,1666750283
Richards Bay,-28.783,32.0377,70.88,84,98,17.47,ZA,1666749863
Kerugoya,-0.4989,37.2803,60.66,85,98,0.81,KE,1666750284
Kaa-Khem,51.6833,94.7333,28.62,31,0,2.73,RU,1666750284
Jinchang,38.4953,102.1739,49.05,38,96,7.34,CN,1666750285
Sabang,5.8933,95.3214,81.59,77,99,9.37,ID,1666750046
Saint-Louis,16.3333,-15.0,87.21,44,66,9.24,SN,1666750285
Wewak,-3.5534,143.6268,86.49,64,91,5.88,PG,1666750286
Kabompo,-13.5927,24.2008,64.31,66,50,2.53,ZM,1666750286
Presidente Olegário,-18.4178,-46.4181,72.03,52,35,1.68,BR,1666750287
Senno,59.5336,33.9167,31.26,91,100,9.44,RU,1666750287
San Cristobal,7.7669,-72.225,66.38,97,100,1.25,VE,1666750063
Santa Maria da Vitória,-13.3947,-44.1886,72.07,80,67,1.74,BR,1666750287
Monaragala,6.8714,81.3487,77.34,85,92,0.72,LK,1666750288
Sun City West,33.662,-112.3413,70.39,25,0,4.61,US,1666750288
Beltinci,46.6053,16.2406,46.74,94,48,1.59,SI,1666750289
Iqaluit,63.7506,-68.5145,27.7,79,100,23.0,CA,1666750126
Wanning,18.8003,110.3967,77.58,88,93,13.31,CN,1666750289
Chapais,49.7834,-74.8492,57.29,86,100,10.51,CA,1666750105
Camacupa,-12.0167,17.4833,62.85,88,75,4.29,AO,1666750356
Bud,39.447,-86.1758,62.67,97,100,16.06,US,1666750356
Alausí,-2.2,-78.8333,51.21,94,99,1.43,EC,1666750356
Nueva Gorgona,8.55,-79.8667,80.22,99,98,3.02,PA,1666750357
Skjervøy,70.0311,20.9714,30.2,56,100,4.21,NO,1666750357
Asău,46.4333,26.4,52.72,89,43,3.71,RO,1666750058
Saint-Joseph,-21.3667,55.6167,66.58,70,12,9.66,RE,1666750357
Simao,22.7886,100.9748,73.2,60,46,3.09,CN,1666750358
Mukhen,48.1,136.1,49.71,36,86,8.1,RU,1666750358
Isangel,-19.55,169.2667,77.11,88,75,5.75,VU,1666750077
San Miguel de Tucumán,-26.8241,-65.2226,80.6,47,0,3.44,AR,1666750215
Sri Aman,1.2376,111.4621,82.69,76,87,3.2,MY,1666750359
Evensk,61.95,159.2333,20.34,80,24,5.61,RU,1666750359
Tura,25.5198,90.2201,69.49,94,3,3.24,IN,1666750042
Paraná,-31.732,-60.5238,76.57,56,96,18.75,AR,1666750360
Isiro,2.7739,27.616,65.21,99,100,1.57,CD,1666750360
San Juan,-31.5375,-68.5364,68.86,53,0,33.2,AR,1666750111
Vila Franca do Campo,37.7167,-25.4333,61.21,73,98,11.14,PT,1666750012
Padang,-0.9492,100.3543,82.45,81,100,0.6,ID,1666750076
Konëvo,62.1215,39.3192,27.5,96,87,4.59,RU,1666750361
Kamaishi,39.2667,141.8833,54.82,55,86,17.74,JP,1666750361
Arrondissement de Mont-de-Marsan,44.0,-0.6667,58.78,100,3,4.61,FR,1666750362
Bjørnevatn,69.6672,29.9847,33.42,86,100,9.22,NO,1666750362
Arrondissement de Saint-Denis,48.9167,2.3333,61.25,86,0,9.22,FR,1666750362
Blagoyevo,63.3667,47.9167,31.21,87,79,6.24,RU,1666750363
Noumea,-22.2763,166.4572,82.38,78,72,13.91,NC,1666750317
Susurluk,39.9136,28.1578,55.83,42,6,2.71,TR,1666750363
Onega,63.9061,38.1404,31.01,88,86,6.71,RU,1666750364
Guskhara,23.5,87.75,73.38,70,0,4.07,IN,1666750364
Chërnaya Kholunitsa,58.8511,51.7154,28.11,94,92,3.58,RU,1666750364
Sungai Raya,0.7,108.9,84.49,69,72,4.65,ID,1666750365
Port Huron,42.9709,-82.4249,66.54,58,40,9.22,US,1666750365
Tezu,27.9167,96.1667,72.46,91,42,1.25,IN,1666750348
Luwingu,-10.2621,29.9271,66.22,58,100,3.15,ZM,1666750366
Faya,18.3851,42.4509,55.92,71,0,2.64,SA,1666750025
Kuala Lipis,4.1842,102.0468,79.29,89,100,0.16,MY,1666750366
Eirunepé,-6.6603,-69.8736,74.82,91,100,2.73,BR,1666750366
Ancud,-41.8697,-73.8203,51.85,97,97,13.82,CL,1666750079
Fresnillo,23.1667,-102.8833,60.35,46,3,10.36,MX,1666750158
Serebryansk,49.6925,83.2892,32.34,44,3,5.53,KZ,1666750367
Amapá,1.0,-52.0,78.42,77,100,5.1,BR,1666750111
Bara,10.3744,10.7288,73.96,32,14,4.65,NG,1666750367
Tshikapa,-6.4167,20.8,69.46,97,99,2.26,CD,1666750368
Aktash,50.3,87.7333,18.23,49,100,4.05,RU,1666750368
Cayenne,4.9333,-52.3333,78.84,89,0,2.3,GF,1666749969
Bogalusa,30.791,-89.8487,64.74,59,0,6.91,US,1666750369
Krasnoslobodsk,48.7072,44.5714,40.82,75,75,8.95,RU,1666750369
Ust-Nera,64.5667,143.2,19.31,91,100,12.86,RU,1666750369
Edgemoor,39.7501,-75.4996,67.28,90,100,3.44,US,1666750115
Kasongo-Lunda,-6.4667,16.8167,69.53,99,100,1.39,CD,1666750370
Broken Hill,-31.95,141.4333,75.24,36,48,13.4,AU,1666750105
Bull Savanna,17.8868,-77.5902,76.28,80,20,2.62,JM,1666750370
Dicabisagan,17.0818,122.4157,77.49,83,100,13.06,PH,1666750371
Assiut,27.181,31.1837,70.18,36,75,7.78,EG,1666750371
La Romana,18.4273,-68.9728,71.96,94,100,4.61,DO,1666750371
Jerusalem,31.769,35.2163,68.2,70,15,3.0,IL,1666750351
Dabou,5.3256,-4.3769,77.27,90,99,6.06,CI,1666750372
Barguzin,53.6167,109.6167,30.88,55,7,1.54,RU,1666750372
Derzhavīnsk,51.1,66.3167,37.8,64,100,7.52,KZ,1666750373
Bilma,18.6853,12.9164,68.22,16,0,4.05,NE,1666750116
Salalah,17.0151,54.0924,73.49,68,0,3.44,OM,1666750067
Huron,41.1501,-82.5499,66.67,67,100,14.09,US,1666750373
Chernukha,55.5974,43.7556,33.03,84,12,1.7,RU,1666750374
Boende,-0.2167,20.8667,70.63,99,100,2.15,CD,1666750374
Jurilovca,44.7667,28.8667,59.09,84,60,16.8,RO,1666750374
Paamiut,61.994,-49.6678,31.01,56,100,3.38,GL,1666750375
Podyuga,61.095,40.8647,27.77,96,63,4.34,RU,1666750375
Barranca,-10.75,-77.7667,60.75,85,20,8.5,PE,1666750375
Vengerovo,55.6848,76.7471,30.09,77,100,6.11,RU,1666750363
Nkoteng,4.5167,12.0333,67.21,98,98,1.81,CM,1666750376
Honiara,-9.4333,159.95,85.53,71,69,7.0,SB,1666750376
Marechal Cândido Rondon,-24.5561,-54.0567,68.83,76,0,5.61,BR,1666750377
Popondetta,-8.7537,148.2534,94.03,44,72,9.33,PG,1666750377
Feicheng,35.2606,117.9675,58.03,59,100,7.76,CN,1666750377
Tshela,-4.9833,12.9333,72.3,99,100,0.78,CD,1666750378
North Platte,41.1239,-100.7654,49.37,45,0,11.99,US,1666750378
Ucluelet,48.9329,-125.5528,46.09,91,100,10.09,CA,1666750016
Kenda,23.2,86.5333,73.36,65,0,3.11,IN,1666750379
Manglaur,29.8,77.8667,63.12,63,0,4.85,IN,1666750379
Santa Marta,11.2408,-74.199,80.89,80,100,1.99,CO,1666750265
Parrita,9.5201,-84.3225,77.54,89,85,1.57,CR,1666750380
Pangnirtung,66.1451,-65.7125,22.14,75,100,9.42,CA,1666750001
Izhma,65.0083,53.9113,28.85,94,100,5.3,RU,1666750380
Eydhafushi,5.1033,73.0708,81.7,76,93,9.44,MV,1666750380
Pemba,-12.974,40.5178,74.32,79,18,13.94,MZ,1666750381
Kruisfontein,-34.0033,24.7314,57.88,86,100,9.75,ZA,1666750049
Peleduy,59.6289,112.7406,30.34,91,100,11.7,RU,1666750333
Kedrovyy,56.1667,91.8167,19.81,60,6,3.24,RU,1666750381
Aljezur,37.3191,-8.8033,66.15,96,100,6.22,PT,1666750382
Xiongyue,40.1774,122.1228,61.45,67,74,15.97,CN,1666750382
Melipilla,-33.7,-71.2167,52.61,94,3,1.01,CL,1666750383
Ibrā’,22.6906,58.5334,70.18,44,1,2.35,OM,1666750383
Arraias,-12.9288,-46.9437,71.24,69,49,3.27,BR,1666750384
Savonlinna,61.8699,28.88,35.65,87,100,6.91,FI,1666750384
Isfana,39.8386,69.5306,45.16,95,99,5.86,KG,1666750385
Tiassalé,5.8983,-4.8283,73.29,99,75,1.95,CI,1666750385
Ol'ga,43.7444,135.2892,49.69,43,0,4.68,RU,1666750386
Nouadhibou,20.931,-17.0347,70.66,81,5,10.78,MR,1666750052
Mindelo,16.8901,-24.9804,76.55,73,20,9.22,CV,1666750386
Taos,36.4072,-105.5731,43.2,50,0,8.05,US,1666750386
Dubna,56.7333,37.1667,31.57,82,93,6.96,RU,1666750387
Angoche,-16.2325,39.9086,73.18,83,9,13.22,MZ,1666750387
Mossamedes,-15.1961,12.1522,67.8,86,27,6.91,AO,1666750042
Makkah al Mukarramah,21.4267,39.8261,78.94,65,30,2.93,SA,1666750148
Masuguru,-11.3667,38.4167,68.95,82,23,4.03,TZ,1666750388
Juneau,58.3019,-134.4197,40.21,97,100,4.61,US,1666750138
Yerbogachën,61.2767,108.0108,28.87,83,100,11.41,RU,1666750388
Verkhnyaya Inta,65.9811,60.3094,23.67,96,95,12.86,RU,1666750389
Copiapó,-27.3667,-70.3333,51.49,60,0,3.33,CL,1666750389
Kautokeino,69.0125,23.0412,28.31,91,100,3.33,NO,1666750390
Neuquén,-38.9516,-68.0591,69.69,30,0,9.22,AR,1666750390
Médéa,36.2642,2.7539,60.51,39,57,6.89,DZ,1666750391
Mayo,38.8876,-76.5119,60.75,95,100,4.61,US,1666750069
Glodeni,47.7708,27.5144,52.21,93,55,6.67,MD,1666750392
Tigil',57.8,158.6667,33.53,97,100,23.98,RU,1666750392
Hammerfest,70.6634,23.6821,32.45,80,75,3.44,NO,1666750081
Kampot,10.6167,104.1833,78.85,76,100,4.12,KH,1666750393
Belaya Gora,68.5333,146.4167,18.79,94,100,11.23,RU,1666750112
Alice Springs,-23.7,133.8833,87.35,27,4,10.36,AU,1666749970
Darhan,49.4867,105.9228,29.8,54,0,8.25,MN,1666750394
Tooele,40.5308,-112.2983,42.98,81,0,6.91,US,1666750394
Canutama,-6.5339,-64.3831,75.6,94,100,1.12,BR,1666750394
Port Keats,-14.25,129.55,91.35,56,57,10.49,AU,1666750395
Port Blair,11.6667,92.75,82.26,75,80,6.35,IN,1666750352
Solsona,41.994,1.5171,60.01,57,11,4.29,ES,1666750395
Geraldton,-28.7667,114.6,68.41,45,40,12.66,AU,1666750038
Garhi Khairo,28.0606,67.9803,73.09,26,0,1.21,PK,1666750396
Xinxiang,35.3089,113.8672,61.45,55,100,5.23,CN,1666750102
Hirara,24.8,125.2833,75.04,62,87,18.79,JP,1666750020
La Libertad,-2.2333,-80.9,68.45,82,92,8.16,EC,1666750397
Massakory,12.996,15.7293,79.2,16,6,12.28,TD,1666750397
Arrondissement de Millau,44.0833,2.9167,53.73,94,65,2.91,FR,1666750398
Soe,-9.8607,124.284,83.46,48,100,2.13,ID,1666750398
Norfolk,42.1668,-71.2495,64.65,97,100,0.0,US,1666750399
Zharkovskiy,55.849,32.2697,42.44,87,100,7.2,RU,1666750399
Kirando,-7.4167,30.6,77.72,59,92,5.35,TZ,1666750399
Kiryat Gat,31.61,34.7642,75.88,31,0,5.03,IL,1666750314
Qaqortoq,60.7167,-46.0333,28.11,72,49,5.32,GL,1666750400
Tilichiki,60.4667,166.1,32.63,83,100,23.17,RU,1666750400
Biysk,52.5364,85.2072,30.79,60,0,5.68,RU,1666750401
Ukiah,39.1502,-123.2078,57.09,51,0,0.0,US,1666750210
Nemuro,43.3236,145.575,47.73,57,31,9.69,JP,1666750402
Airai,-8.9266,125.4092,74.8,53,100,1.23,TL,1666750092
Port-Gentil,-0.7193,8.7815,78.64,84,100,8.43,GA,1666750074
Bonga,7.2833,36.2333,57.02,98,35,2.1,ET,1666750403
Izumo,35.3667,132.7667,63.61,50,41,9.37,JP,1666750058
Buraidah,26.326,43.975,71.94,19,7,8.52,SA,1666750404
Phalaborwa,-23.943,31.1411,77.74,46,58,2.91,ZA,1666750209
Jorochito,-18.05,-63.4333,78.31,69,99,5.95,BO,1666750404
Paita,-5.0892,-81.1144,63.57,83,66,13.06,PE,1666750405
Saint Anthony,45.0205,-93.218,43.14,76,0,0.0,US,1666750405
Delījān,33.9905,50.6838,60.39,40,8,4.05,IR,1666750405
Samarai,-10.6167,150.6667,83.59,67,9,10.49,PG,1666750406
Ormara,25.2088,64.6357,79.48,65,0,1.05,PK,1666750406
Aloleng,16.1307,119.7824,83.25,72,100,6.08,PH,1666750406
Yumen,40.2833,97.2,45.3,35,0,12.59,CN,1666750407
San Quintín,30.4833,-115.95,66.56,67,0,11.92,MX,1666750105
Unión de San Antonio,21.1,-101.9667,66.36,48,48,6.44,MX,1666750407
Mastic Beach,40.7668,-72.8521,66.49,98,100,1.99,US,1666750408
Sibolga,1.7427,98.7792,80.98,77,100,0.38,ID,1666750408
Boshan,36.4833,117.8333,57.06,51,100,10.96,CN,1666750408
Jalu,29.0331,21.5482,64.83,79,0,4.76,LY,1666750116
San Vicente,-26.6167,-54.1333,63.18,87,0,3.06,AR,1666750409
Dombasle-sur-Meurthe,48.6252,6.3497,62.11,95,0,3.44,FR,1666750409
Jieshi,22.8134,115.8257,73.2,63,99,18.12,CN,1666750410
Dafeng,23.4517,108.5881,79.66,56,14,6.17,CN,1666750410
Qixingtai,30.4135,111.8874,60.48,74,100,6.89,CN,1666750410
Roald,62.5833,6.1333,54.75,87,100,10.36,NO,1666750411
Gijang,35.2442,129.2139,59.63,56,98,7.63,KR,1666750411
Kumul,42.8,93.45,53.55,31,100,2.95,CN,1666750025
Calama,-22.4667,-68.9333,52.29,17,0,2.3,CL,1666750079
Jobabo,20.9692,-76.2994,73.42,88,0,4.18,CU,1666750412
Kenora,49.8167,-94.4337,32.77,81,91,8.01,CA,1666750412
Altamont,42.2068,-121.7372,44.98,68,0,13.8,US,1666750413
Tibacuy,4.3511,-72.4564,77.04,78,100,4.23,CO,1666750413
Dunedin,-45.8742,170.5036,49.6,90,100,5.48,NZ,1666750027
Nazarovo,56.0064,90.3914,30.43,54,7,3.27,RU,1666750414
Muros,42.7762,-9.0603,67.08,77,96,18.34,ES,1666750052
Wukari,7.85,9.7833,74.28,93,99,2.68,NG,1666750414
Bergen,60.392,5.328,52.14,95,75,9.22,NO,1666750414
Umeå,63.8284,20.2597,37.9,100,100,2.3,SE,1666750415
Waingapu,-9.6567,120.2641,85.23,66,100,5.84,ID,1666750318
Makokou,0.5738,12.8642,68.52,99,100,2.59,GA,1666750415
Palmdale,34.5794,-118.1165,64.89,32,0,17.27,US,1666750307
Cairo,30.0626,31.2497,70.56,88,75,3.44,EG,1666750306
Fuquay-Varina,35.5843,-78.8,61.03,86,100,1.01,US,1666750336
Pacific Grove,36.6177,-121.9166,58.51,82,20,11.99,US,1666750416
Kargala,56.6208,83.9607,29.95,65,100,8.34,RU,1666750416
Mogadishu,2.0371,45.3438,77.97,84,94,8.86,SO,1666750314
Sergeevka,53.88,67.4158,30.94,85,100,2.35,KZ,1666750417
Polovinnoye,54.7914,65.9864,32.88,99,100,7.65,RU,1666750417
Porbandar,21.6422,69.6093,77.63,64,1,3.89,IN,1666750417
Nosy Varika,-20.5833,48.5333,71.83,78,42,12.01,MG,1666750418
Morondava,-20.2833,44.2833,74.37,83,54,4.59,MG,1666750418
Borås,57.721,12.9401,54.82,90,100,8.59,SE,1666750418
Chilca,-12.5211,-76.7372,61.02,89,60,10.18,PE,1666750419
Kotido,2.9806,34.1331,71.49,61,51,10.51,UG,1666750419
Bandarbeyla,9.4942,50.8122,76.32,81,89,5.17,SO,1666750019
Juigalpa,12.1063,-85.3645,75.27,90,53,2.62,NI,1666750420
Huarmey,-10.0681,-78.1522,62.78,83,19,9.8,PE,1666750420
Dinghaicun,26.2847,119.7936,66.69,70,82,13.8,CN,1666750420
Tokur,53.1333,132.9,30.45,90,100,1.59,RU,1666750421
Atar,20.5169,-13.0499,84.61,14,100,5.84,MR,1666750101
Bocas del Toro,9.3333,-82.25,79.75,81,35,4.16,PA,1666750421
Shimanovsk,52.0,127.7,35.35,53,100,11.86,RU,1666750422
Grindavik,63.8424,-22.4338,45.07,81,100,18.41,IS,1666750422
Chipinge,-20.1883,32.6236,67.53,63,0,3.36,ZW,1666750422
Taguatinga,-12.3857,-46.5711,74.61,70,26,1.52,BR,1666750423
Presidencia Roque Sáenz Peña,-26.7852,-60.4388,81.86,41,50,11.52,AR,1666750423
